[
  { "nome": "Afeganistão", "latitude": 33.9391, "longitude": 67.7099 },
  { "nome": "África do Sul", "latitude": -30.5595, "longitude": 22.9375 },
  { "nome": "Albânia", "latitude": 41.1533, "longitude": 20.1683 },
  { "nome": "Alemanha", "latitude": 51.1657, "longitude": 10.4515 },
  { "nome": "Andorra", "latitude": 42.5462, "longitude": 1.6015 },
  { "nome": "Angola", "latitude": -11.2027, "longitude": 17.8739 },
  { "nome": "Antígua e Barbuda", "latitude": 17.0608, "longitude": -61.7964 },
  { "nome": "Arábia Saudita", "latitude": 23.8859, "longitude": 45.0792 },
  { "nome": "Argélia", "latitude": 28.0339, "longitude": 1.6596 },
  { "nome": "Argentina", "latitude": -38.4161, "longitude": -63.6167 },
  { "nome": "Armênia", "latitude": 40.0691, "longitude": 45.0382 },
  { "nome": "Austrália", "latitude": -25.2744, "longitude": 133.7751 },
  { "nome": "Áustria", "latitude": 47.5162, "longitude": 14.5501 },
  { "nome": "Azerbaijão", "latitude": 40.1431, "longitude": 47.5769 },
  { "nome": "Bahamas", "latitude": 25.0343, "longitude": -77.3963 },
  { "nome": "Bahrein", "latitude": 26.0275, "longitude": 50.5500 },
  { "nome": "Bangladesh", "latitude": 23.6850, "longitude": 90.3563 },
  { "nome": "Barbados", "latitude": 13.1939, "longitude": -59.5432 },
  { "nome": "Belarus", "latitude": 53.7098, "longitude": 27.9534 },
  { "nome": "Bélgica", "latitude": 50.8333, "longitude": 4.0000 },
  { "nome": "Belize", "latitude": 17.1899, "longitude": -88.4976 },
  { "nome": "Benim", "latitude": 9.3077, "longitude": 2.3158 },
  { "nome": "Butão", "latitude": 27.5142, "longitude": 90.4336 },
  { "nome": "Bolívia", "latitude": -16.2902, "longitude": -63.5887 },
  { "nome": "Bósnia e Herzegovina", "latitude": 43.9159, "longitude": 17.6791 },
  { "nome": "Botsuana", "latitude": -22.3285, "longitude": 24.6849 },
  { "nome": "Brasil", "latitude": -14.2350, "longitude": -51.9253 },
  { "nome": "Brunei", "latitude": 4.5353, "longitude": 114.7277 },
  { "nome": "Bulgária", "latitude": 42.7339, "longitude": 25.4858 },
  { "nome": "Burkina Faso", "latitude": 12.2383, "longitude": -1.5616 },
  { "nome": "Burundi", "latitude": -3.3731, "longitude": 29.9189 },
  { "nome": "Cabo Verde", "latitude": 15.1115, "longitude": -23.6039 },
  { "nome": "Camboja", "latitude": 12.5657, "longitude": 104.9910 },
  { "nome": "Camarões", "latitude": 7.3697, "longitude": 12.3547 },
  { "nome": "Canadá", "latitude": 56.1304, "longitude": -106.3468 },
  { "nome": "Catar", "latitude": 25.3548, "longitude": 51.1839 },
  { "nome": "Cazaquistão", "latitude": 48.0196, "longitude": 66.9237 },
  { "nome": "Chade", "latitude": 15.4542, "longitude": 18.7322 },
  { "nome": "Chile", "latitude": -35.6751, "longitude": -71.5430 },
  { "nome": "China", "latitude": 35.8617, "longitude": 104.1954 },
  { "nome": "Chipre", "latitude": 35.1264, "longitude": 33.4299 },
  { "nome": "Colômbia", "latitude": 4.5709, "longitude": -74.2973 },
  { "nome": "Comores", "latitude": -11.6455, "longitude": 43.3333 },
  { "nome": "Congo (Brazzaville)", "latitude": -4.0383, "longitude": 21.7587 },
  { "nome": "Congo (Kinshasa)", "latitude": -4.0383, "longitude": 21.7587 },
  { "nome": "Coreia do Norte", "latitude": 40.3399, "longitude": 127.5101 },
  { "nome": "Coreia do Sul", "latitude": 35.9078, "longitude": 127.7669 },
  { "nome": "Costa do Marfim", "latitude": 7.5400, "longitude": -5.5471 },
  { "nome": "Costa Rica", "latitude": 9.7489, "longitude": -83.7534 },
  { "nome": "Croácia", "latitude": 45.1000, "longitude": 15.2000 },
  { "nome": "Cuba", "latitude": 22.0000, "longitude": -79.0000 },
  { "nome": "Dinamarca", "latitude": 56.2639, "longitude": 9.5018 },
  { "nome": "Djibuti", "latitude": 11.8251, "longitude": 42.5903 },
  { "nome": "Dominica", "latitude": 15.4150, "longitude": -61.3710 },
  { "nome": "República Dominicana", "latitude": 18.7357, "longitude": -70.1627 },
  { "nome": "Egito", "latitude": 26.8206, "longitude": 30.8025 },
  { "nome": "El Salvador", "latitude": 13.7942, "longitude": -88.8965 },
  { "nome": "Emirados Árabes Unidos", "latitude": 23.4241, "longitude": 53.8478 },
  { "nome": "Equador", "latitude": -1.8312, "longitude": -78.1834 },
  { "nome": "Eritreia", "latitude": 15.1794, "longitude": 39.7823 },
  { "nome": "Eslováquia", "latitude": 48.6690, "longitude": 19.6990 },
  { "nome": "Eslovênia", "latitude": 46.1512, "longitude": 14.9955 },
  { "nome": "Espanha", "latitude": 40.4637, "longitude": -3.7492 },
  { "nome": "Essuatíni", "latitude": -26.5225, "longitude": 31.4659 },
  { "nome": "Estados Unidos", "latitude": 37.0902, "longitude": -95.7129 },
  { "nome": "Estônia", "latitude": 59.4370, "longitude": 24.7536 },
  { "nome": "Etiópia", "latitude": 9.1450, "longitude": 40.4897 },
  { "nome": "Filipinas", "latitude": 12.8797, "longitude": 121.7740 },
  { "nome": "Finlândia", "latitude": 61.9241, "longitude": 25.7482 },
  { "nome": "França", "latitude": 46.2276, "longitude": 2.2137 },
  { "nome": "Gabão", "latitude": -0.8037, "longitude": 11.6094 },
  { "nome": "Gâmbia", "latitude": 13.4432, "longitude": -15.3101 },
  { "nome": "Geórgia", "latitude": 42.3154, "longitude": 43.3569 },
  { "nome": "Gana", "latitude": 7.9465, "longitude": -1.0232 },
  { "nome": "Granada", "latitude": 12.2628, "longitude": -61.6041 },
  { "nome": "Grécia", "latitude": 39.0742, "longitude": 21.8243 },
  { "nome": "Guatemala", "latitude": 15.7835, "longitude": -90.2307 },
  { "nome": "Guiné", "latitude": 9.9456, "longitude": -9.6966 },
  { "nome": "Guiné-Bissau", "latitude": 11.8037, "longitude": -15.8318 },
  { "nome": "Guiné Equatorial", "latitude": 1.5576, "longitude": 10.9394 },
  { "nome": "Guiana", "latitude": 4.8604, "longitude": -58.9302 },
  { "nome": "Haiti", "latitude": 18.9712, "longitude": -72.2852 },
  { "nome": "Honduras", "latitude": 15.2000, "longitude": -86.2419 },
  { "nome": "Hungria", "latitude": 47.1625, "longitude": 19.5033 },
  { "nome": "Iêmen", "latitude": 15.5527, "longitude": 48.5164 },
  { "nome": "Índia", "latitude": 20.5937, "longitude": 78.9629 },
  { "nome": "Indonésia", "latitude": -0.7800, "longitude": 113.9213 },
  { "nome": "Irã", "latitude": 32.4279, "longitude": 53.6880 },
  { "nome": "Iraque", "latitude": 33.2232, "longitude": 43.6793 },
  { "nome": "Irlanda", "latitude": 53.1424, "longitude": -7.6921 },
  { "nome": "Islândia", "latitude": 64.9631, "longitude": -19.0208 },
  { "nome": "Israel", "latitude": 31.0461, "longitude": 34.8516 },
  { "nome": "Itália", "latitude": 41.8719, "longitude": 12.5674 },
  { "nome": "Jamaica", "latitude": 18.1096, "longitude": -77.2975 },
  { "nome": "Japão", "latitude": 36.2048, "longitude": 138.2529 },
  { "nome": "Jordânia", "latitude": 30.5852, "longitude": 36.2384 },
  { "nome": "Quênia", "latitude": -0.0236, "longitude": 37.9062 },
  { "nome": "Quirguistão", "latitude": 41.2044, "longitude": 74.7661 },
  { "nome": "Kuwait", "latitude": 29.3117, "longitude": 47.4818 },
  { "nome": "Laos", "latitude": 19.8563, "longitude": 102.4955 },
  { "nome": "Lesoto", "latitude": -29.6099, "longitude": 28.2337 },
  { "nome": "Letônia", "latitude": 56.8796, "longitude": 24.6032 },
  { "nome": "Líbano", "latitude": 33.8938, "longitude": 35.5018 },
  { "nome": "Libéria", "latitude": 6.4281, "longitude": -9.4295 },
  { "nome": "Líbia", "latitude": 26.3351, "longitude": 17.2283 },
  { "nome": "Liechtenstein", "latitude": 47.1660, "longitude": 9.5552 },
  { "nome": "Lituânia", "latitude": 55.1694, "longitude": 23.8813 },
  { "nome": "Luxemburgo", "latitude": 49.8153, "longitude": 6.1296 },
  { "nome": "Macedônia do Norte", "latitude": 41.6086, "longitude": 21.7453 },
  { "nome": "Madagáscar", "latitude": -18.7669, "longitude": 46.8691 },
  { "nome": "Maláui", "latitude": -13.2543, "longitude": 34.3015 },
  { "nome": "Malásia", "latitude": 4.2104, "longitude": 101.9758 },
  { "nome": "Maldivas", "latitude": 3.2028, "longitude": 73.2207 },
  { "nome": "Mali", "latitude": 17.5707, "longitude": -3.9962 },
  { "nome": "Malta", "latitude": 35.9375, "longitude": 14.5001 },
  { "nome": "Marrocos", "latitude": 31.7917, "longitude": -7.0926 },
  { "nome": "Ilhas Marshall", "latitude": 7.1333, "longitude": 171.1833 },
  { "nome": "Mauritânia", "latitude": 21.0079, "longitude": -10 },
  { "nome": "Maurício", "latitude": -20.3484, "longitude": 57.5522 },
  { "nome": "México", "latitude": 23.6345, "longitude": -102.5528 },
  { "nome": "Estados Federados da Micronésia", "latitude": 7.4231, "longitude": 150.5508 },
  { "nome": "Moldávia", "latitude": 47.4116, "longitude": 28.3699 },
  { "nome": "Mônaco", "latitude": 43.7384, "longitude": 7.4246 },
  { "nome": "Mongólia", "latitude": 46.8625, "longitude": 103.8467 },
  { "nome": "Montenegro", "latitude": 42.7087, "longitude": 19.3744 },
  { "nome": "Moçambique", "latitude": -18.6657, "longitude": 35.5296 },
  { "nome": "Myanmar (Birmânia)", "latitude": 21.9139, "longitude": 95.9560 },
  { "nome": "Namíbia", "latitude": -22.9576, "longitude": 18.4904 },
  { "nome": "Nauru", "latitude": -0.5228, "longitude": 166.9315 },
  { "nome": "Nepal", "latitude": 28.3949, "longitude": 84.1240 },
  { "nome": "Nova Zelândia", "latitude": -40.9006, "longitude": 174.8860 },
  { "nome": "Nicarágua", "latitude": 12.8654, "longitude": -85.2072 },
  { "nome": "Níger", "latitude": 17.6078, "longitude": 8.0817 },
  { "nome": "Nigéria", "latitude": 9.0820, "longitude": 8.6753 },
  { "nome": "Noruega", "latitude": 60.4720, "longitude": 8.4689 },
  { "nome": "Omã", "latitude": 21.4735, "longitude": 55.9754 },
  { "nome": "Palau", "latitude": 7.5150, "longitude": 134.5825 },
  { "nome": "Panamá", "latitude": 8.5379, "longitude": -80.7821 },
  { "nome": "Papua-Nova Guiné", "latitude": -6.3149, "longitude": 143.9555 },
  { "nome": "Paquistão", "latitude": 30.3753, "longitude": 69.3451 },
  { "nome": "Paraguai", "latitude": -23.4425, "longitude": -58.4438 },
  { "nome": "Peru", "latitude": -9.1899, "longitude": -75.0152 },
  { "nome": "Polônia", "latitude": 51.9194, "longitude": 19.1451 },
  { "nome": "Portugal", "latitude": 39.3999, "longitude": -8.2245 },
  { "nome": "Qatar", "latitude": 25.3548, "longitude": 51.1839 },
  { "nome": "Reino Unido", "latitude": 55.3781, "longitude": -3.4360 },
  { "nome": "República Centro-Africana", "latitude": 6.6111, "longitude": 20.9394 },
  { "nome": "República Tcheca", "latitude": 49.8175, "longitude": 15.4730 },
  { "nome": "Romênia", "latitude": 45.9432, "longitude": 24.9668 },
  { "nome": "Ruanda", "latitude": -1.9403, "longitude": 29.8739 },
  { "nome": "Rússia", "latitude": 61.5240, "longitude": 105.3188 },
  { "nome": "Samoa", "latitude": -13.7590, "longitude": -172.1046 },
  { "nome": "San Marino", "latitude": 43.9424, "longitude": 12.4578 },
  { "nome": "São Tomé e Príncipe", "latitude": 0.1864, "longitude": 6.6131 },
  { "nome": "Senegal", "latitude": 14.4974, "longitude": -14.4524 },
  { "nome": "Sérvia", "latitude": 44.0165, "longitude": 21.0059 },
  { "nome": "Serra Leoa", "latitude": 8.4605, "longitude": -11.7799 },
  { "nome": "Seychelles", "latitude": -4.6796, "longitude": 55.4920 },
  { "nome": "Singapura", "latitude": 1.3521, "longitude": 103.8198 },
  { "nome": "Síria", "latitude": 34.8021, "longitude": 38.9968 },
  { "nome": "Somália", "latitude": 5.1521, "longitude": 46.1996 },
  { "nome": "Sri Lanka", "latitude": 7.8731, "longitude": 80.7718 },
  { "nome": "Sudão", "latitude": 15.6535, "longitude": 32.5590 },
  { "nome": "Sudão do Sul", "latitude": 6.8770, "longitude": 31.3070 },
  { "nome": "Suécia", "latitude": 60.1282, "longitude": 18.6435 },
  { "nome": "Suíça", "latitude": 46.8182, "longitude": 8.2275 },
  { "nome": "Suriname", "latitude": 3.9193, "longitude": -56.0278 },
  { "nome": "Tailândia", "latitude": 15.8700, "longitude": 100.9925 },
  { "nome": "Taiwan", "latitude": 23.6978, "longitude": 120.9605 },
  { "nome": "Tajiquistão", "latitude": 39.3488, "longitude": 71.2761 },
  { "nome": "Tanzânia", "latitude": -6.3690, "longitude": 34.8888 },
  { "nome": "Timor-Leste", "latitude": -8.8742, "longitude": 125.7275 },
  { "nome": "Togo", "latitude": 8.6195, "longitude": 0.8248 },
  { "nome": "Tonga", "latitude": -21.1790, "longitude": -175.1982 },
  { "nome": "Trinidad e Tobago", "latitude": 10.6918, "longitude": -61.2225 },
  { "nome": "Tunísia", "latitude": 33.8869, "longitude": 9.5375 },
  { "nome": "Turquia", "latitude": 38.9637, "longitude": 35.2433 },
  { "nome": "Turcomenistão", "latitude": 38.9697, "longitude": 59.5563 },
  { "nome": "Tuvalu", "latitude": -7.1095, "longitude": 177.6493 },
  { "nome": "Ucrânia", "latitude": 48.3794, "longitude": 31.1656 },
  { "nome": "Uganda", "latitude": 1.3731, "longitude": 32.2903 },
  { "nome": "Uruguai", "latitude": -32.5228, "longitude": -55.7658 },
  { "nome": "Uzbequistão", "latitude": 41.3775, "longitude": 64.5853 },
  { "nome": "Vanuatu", "latitude": -15.3767, "longitude": 166.9592 },
  { "nome": "Vaticano", "latitude": 41.9029, "longitude": 12.4534 },
  { "nome": "Venezuela", "latitude": 6.4238, "longitude": -66.5897 },
  { "nome": "Vietnã", "latitude": 14.0583, "longitude": 108.2772 },
  { "nome": "Zâmbia", "latitude": -13.1339, "longitude": 27.8493 },
  { "nome": "Zimbábue", "latitude": -19.0154, "longitude": 29.1549 }
]